[{
	"title": "The Old Ship",
	"address": "2 Sylvester Path, Greater London, E8 1EN",
	"postcode": "E8 1EN",
	"lat": 51.545907,
	"lng": -0.056051
}, {
	"title": "Mama’s Jerk",
	"address": "Mama’s Jerk, 10 Morning Lane , E9 6NA",
	"postcode": "E9 6NA",
	"lat": 51.545897,
	"lng": -0.053801
}, {
	"title": "Temple Of Hackney",
	"address": "5, Morning Lane, London, E9 6NA",
	"postcode": "E9 6NA",
	"lat": 51.545897,
	"lng": -0.053801
}, {
	"title": "Hackney Church Brew Co.",
	"address": "17 Bohemia Place Mare Street, Greater London, E8 1DU",
	"postcode": "E8 1DU",
	"lat": 51.547321,
	"lng": -0.053339
}, {
	"title": "Tad food",
	"address": "261 Mare Street, Greater London, E8 3NS",
	"postcode": "E8 3NS",
	"lat": 51.542725,
	"lng": -0.05561
}, {
	"title": "Saint Sourdough Pizzeria",
	"address": "18 Bohemia Place Mare Street, Greater London, E8 1DU",
	"postcode": "E8 1DU",
	"lat": 51.547321,
	"lng": -0.053339
}, {
	"title": "Tonkotsu Mare Street",
	"address": "382 Mare Street, Greater London, E8 1HR",
	"postcode": "E8 1HR",
	"lat": 51.548244,
	"lng": -0.054799
}, {
	"title": "Patty and Bun",
	"address": "2 Arthaus Building , 205 Richmond Road, E8 3NJ",
	"postcode": "E8 3NJ",
	"lat": 51.543664,
	"lng": -0.058946
}, {
	"title": "Pophams Bakery",
	"address": "197 Richmond Road, E8 3NJ",
	"postcode": "E8 3NJ",
	"lat": 51.543664,
	"lng": -0.058946
}, {
	"title": "WAVE, We Are Vegan Everything by Cupcakes and Shhht",
	"address": "11 Dispensary Lane, Greater London, E8 1FT",
	"postcode": "E8 1FT",
	"lat": 51.548969,
	"lng": -0.054595
}, {
	"title": "The Pembury Tavern",
	"address": "90 Amhurst Road, Greater London, E8 1JH",
	"postcode": "E8 1JH",
	"lat": 51.548819,
	"lng": -0.058148
}, {
	"title": "JFB Jerk Grill",
	"address": "1 Atkins Square Dalston Lane, Greater London, E8 1FA",
	"postcode": "E8 1FA",
	"lat": 51.549883,
	"lng": -0.058177
}, {
	"title": "PLANT HUB LTD",
	"address": "217 Mare Street, Greater London, E8 3QE",
	"postcode": "E8 3QE",
	"lat": 51.540961,
	"lng": -0.055497
}, {
	"title": "e5 Bakehouse",
	"address": "395 Railway Arches Mentmore Terrace, Greater London, E8 3PH",
	"postcode": "E8 3PH",
	"lat": 51.540988,
	"lng": -0.057688
}, {
	"title": "A Slice Of Blue",
	"address": "43, Lower Clapton Road, UK, E5 0NS",
	"postcode": "E5 0NS",
	"lat": 51.550889,
	"lng": -0.052781
}, {
	"title": "THE PLOUGH",
	"address": "23-25, Homerton High Street, Greater London, E9 6JP",
	"postcode": "E9 6JP",
	"lat": 51.548261,
	"lng": -0.047801
}, {
	"title": "Well Street Kithen",
	"address": "203 Well Street, Greater London, E9 6QU",
	"postcode": "E9 6QU",
	"lat": 51.54338,
	"lng": -0.047924
}, {
	"title": "Rosa's Thai Kitchen",
	"address": "381 Railway Arches Mentmore Terrace, Greater London, E8 3PH",
	"postcode": "E8 3PH",
	"lat": 51.540988,
	"lng": -0.057688
}, {
	"title": "Well Street Pizza (Hackney)",
	"address": "184 Well Street, Greater London, E9 6QT",
	"postcode": "E9 6QT",
	"lat": 51.544133,
	"lng": -0.04661
}, {
	"title": "No1 cafe (W.S) Ltd",
	"address": "36-38, Well Street, Greater London, E9 7PX",
	"postcode": "E9 7PX",
	"lat": 51.539963,
	"lng": -0.053768
}, {
	"title": "NuDawn",
	"address": "206 Well Street, Greater London, E9 6QT",
	"postcode": "E9 6QT",
	"lat": 51.544133,
	"lng": -0.04661
}, {
	"title": "THE PRINCE ARTHUR",
	"address": "95 Forest Road, Greater London, E8 3BH",
	"postcode": "E8 3BH",
	"lat": 51.543911,
	"lng": -0.064775
}, {
	"title": "Smashing Kitchen",
	"address": "1A Bayford Street, Hackney, Greater London, E8 3SE",
	"postcode": "E8 3SE",
	"lat": 51.539808,
	"lng": -0.057003
}, {
	"title": "lucky & joy",
	"address": "95 Lower Clapton Road, Greater London, E5 0NP",
	"postcode": "E5 0NP",
	"lat": 51.552119,
	"lng": -0.0526
}, {
	"title": "The Bread Station Limited",
	"address": "Arch 373, Helmsley Place, Greater London, E8 3SB",
	"postcode": "E8 3SB",
	"lat": 51.539469,
	"lng": -0.058806
}, {
	"title": "Martello Hall",
	"address": "137 Mare Street, Greater London, E8 3RH",
	"postcode": "E8 3RH",
	"lat": 51.539479,
	"lng": -0.056586
}, {
	"title": "Star by Hackney Downs",
	"address": "35 Queensdown Road, Greater London, E5 8NN",
	"postcode": "E5 8NN",
	"lat": 51.554167,
	"lng": -0.057992
}, {
	"title": "Prairie Fire at The London Fields Brewery Taproom",
	"address": "365-366, Railway Arches Warburton Street, Greater London, E8 3RR",
	"postcode": "E8 3RR",
	"lat": 51.538446,
	"lng": -0.058402
}, {
	"title": "The Three Compasses",
	"address": "99 Dalston Lane, Greater London, E8 1NH",
	"postcode": "E8 1NH",
	"lat": 51.548387,
	"lng": -0.067931
}, {
	"title": "Mare Street Market",
	"address": "Keltan House 89-115, Mare Street, Greater London, E8 4RU",
	"postcode": "E8 4RU",
	"lat": 51.537645,
	"lng": -0.057283
}, {
	"title": "My Neighbours the Dumplings",
	"address": "165 Lower Clapton Road, Greater London, E5 8EQ",
	"postcode": "E5 8EQ",
	"lat": 51.55511,
	"lng": -0.05504
}, {
	"title": "The Victoria",
	"address": "451 Queensbridge Road, Greater London, E8 3AS",
	"postcode": "E8 3AS",
	"lat": 51.544792,
	"lng": -0.070232
}, {
	"title": "The Duke of Richmond",
	"address": "316 Queensbridge Road, Greater London, E8 3NH",
	"postcode": "E8 3NH",
	"lat": 51.542041,
	"lng": -0.0697
}, {
	"title": "Little Pickelry",
	"address": "68 Dalston Lane, Greater London, E8 3AH",
	"postcode": "E8 3AH",
	"lat": 51.546086,
	"lng": -0.070569
}, {
	"title": "Off Broadway",
	"address": "63-65, Broadway Market, Greater London, E8 4PH",
	"postcode": "E8 4PH",
	"lat": 51.536751,
	"lng": -0.061906
}, {
	"title": "Buen Ayre Restaurant",
	"address": "50 Broadway Market, Greater London, E8 4QJ",
	"postcode": "E8 4QJ",
	"lat": 51.536584,
	"lng": -0.06161
}, {
	"title": "Okko Restaurant",
	"address": "49 Broadway Market, Greater London, E8 4PH",
	"postcode": "E8 4PH",
	"lat": 51.536751,
	"lng": -0.061906
}, {
	"title": "The Mermaid",
	"address": "181 Clarence Road, Hackney, Greater London, E5 8EE",
	"postcode": "E5 8EE",
	"lat": 51.5546,
	"lng": -0.056288
}, {
	"title": "El Ganso",
	"address": "El Ganso, 59-61 Broadway MArkewt, E8 4PH",
	"postcode": "E8 4PH",
	"lat": 51.536751,
	"lng": -0.061906
}, {
	"title": "The Spread Eagle",
	"address": "The Spread Eagle, 224 Homerton High Street, Greater London, E9 6AS",
	"postcode": "E9 6AS",
	"lat": 51.548896,
	"lng": -0.040577
}, {
	"title": "The Bach",
	"address": "The Bach Cafe, 12 Broadway Market , London, E8 4QJ",
	"postcode": "E8 4QJ",
	"lat": 51.536584,
	"lng": -0.06161
}, {
	"title": "The Dove Freehouse and Kitchen",
	"address": "24-28, Broadway Market, Greater London, E8 4QJ",
	"postcode": "E8 4QJ",
	"lat": 51.536584,
	"lng": -0.06161
}, {
	"title": "Adam & Eve",
	"address": "155 Homerton High Street, Greater London, E9 6AS",
	"postcode": "E9 6AS",
	"lat": 51.548896,
	"lng": -0.040577
}, {
	"title": "Selen Cafe",
	"address": "161 Homerton High Street, Greater London, E9 6AS",
	"postcode": "E9 6AS",
	"lat": 51.548896,
	"lng": -0.040577
}, {
	"title": "ROUTE CAFE / DALSTON JUNCTION",
	"address": "Unit A, Gaumont Tower, Dalston Square, Greater London, E8 3BQ",
	"postcode": "E8 3BQ",
	"lat": 51.545724,
	"lng": -0.073856
}, {
	"title": "Hand of Glory",
	"address": "240 Amhurst Road, Greater London, E8 2BS",
	"postcode": "E8 2BS",
	"lat": 51.554057,
	"lng": -0.068167
}, {
	"title": "Mildreds",
	"address": "Thomas Tower, 1 Dalston Square, E8 3GU",
	"postcode": "E8 3GU",
	"lat": 51.545644,
	"lng": -0.074857
}, {
	"title": "Clapton Hart",
	"address": "231 Lower Clapton Road, Greater London, E5 8EG",
	"postcode": "E5 8EG",
	"lat": 51.556717,
	"lng": -0.056095
}, {
	"title": "Love Shack",
	"address": "Love Shack, Railway Arch 298 - 299, Cambridge Heath Road, e2 9ha",
	"postcode": "e2 9ha",
	"lat": 51.534009,
	"lng": -0.056963
}, {
	"title": "Crown & Castle",
	"address": "Basement and Ground Floor, 600 Kingsland Road, Greater London, E8 4AH",
	"postcode": "E8 4AH",
	"lat": 51.545214,
	"lng": -0.075509
}, {
	"title": "The Co-Dalston",
	"address": "584 Kingsland Road, Greater London, E8 4AH",
	"postcode": "E8 4AH",
	"lat": 51.545214,
	"lng": -0.075509
}, {
	"title": "Costa Coffee",
	"address": "Unit 1a,Dalston Cross Shopping Cent, 64 Kingsland High Street, Greater London, E8 2LX",
	"postcode": "E8 2LX",
	"lat": 51.54771,
	"lng": -0.074291
}, {
	"title": "Wingstop Dalston",
	"address": "Unit 2, 12 Kingsland High St, E8 2JP",
	"postcode": "E8 2JP",
	"lat": 51.546814,
	"lng": -0.075485
}, {
	"title": "The Royal Inn on The Park",
	"address": "111 Lauriston Road, Greater London, E9 7HJ",
	"postcode": "E9 7HJ",
	"lat": 51.537367,
	"lng": -0.044288
}, {
	"title": "Mio Yatai",
	"address": "129A Pritchard's Road, E2 9AP",
	"postcode": "E2 9AP",
	"lat": 51.534187,
	"lng": -0.06239
}, {
	"title": "Bun Bun Bun",
	"address": "511 Kingsland Road, Greater London, E8 4AR",
	"postcode": "E8 4AR",
	"lat": 51.545582,
	"lng": -0.076126
}, {
	"title": "Brilliant Corners",
	"address": "470 Kingsland Road, Greater London, E8 4AE",
	"postcode": "E8 4AE",
	"lat": 51.543329,
	"lng": -0.075875
}, {
	"title": "VYB Dalston",
	"address": "482 Kingsland Road, Hackney, Greater London, E8 4AE",
	"postcode": "E8 4AE",
	"lat": 51.543329,
	"lng": -0.075875
}, {
	"title": "Voodoo Ray's Dalston",
	"address": "95 Kingsland High Street, Greater London, E8 2PB",
	"postcode": "E8 2PB",
	"lat": 51.549466,
	"lng": -0.075573
}, {
	"title": "BEER & BURGER",
	"address": "464 Kingsland Road, Greater London, E8 4AE",
	"postcode": "E8 4AE",
	"lat": 51.543329,
	"lng": -0.075875
}, {
	"title": "Lamela Bistro",
	"address": "25 Marsh Hill, Greater London, E9 5QA",
	"postcode": "E9 5QA",
	"lat": 51.549757,
	"lng": -0.036126
}, {
	"title": "Leo's Cafe",
	"address": "12 Stoke Newington Road, Greater London, N16 7XN",
	"postcode": "N16 7XN",
	"lat": 51.550983,
	"lng": -0.074831
}, {
	"title": "Mangal Ocakbasi",
	"address": "10 Arcola Street, Greater London, E8 2DJ",
	"postcode": "E8 2DJ",
	"lat": 51.552091,
	"lng": -0.073847
}, {
	"title": "Snowbowl",
	"address": "SNOWBOWL, 505 Kingsland Road, E8 4AU",
	"postcode": "E8 4AU",
	"lat": 51.543611,
	"lng": -0.076457
}, {
	"title": "Mama Vics Catering Ltd",
	"address": "7 Bradbury Street, Greater London, N16 8JN",
	"postcode": "N16 8JN",
	"lat": 51.548668,
	"lng": -0.076227
}, {
	"title": "Dalston Superstore",
	"address": "117 Kingsland High Street, Greater London, E8 2PB",
	"postcode": "E8 2PB",
	"lat": 51.549466,
	"lng": -0.075573
}, {
	"title": "MEZCAL",
	"address": "127 Kingsland High Street, Greater London, E8 2PB",
	"postcode": "E8 2PB",
	"lat": 51.549466,
	"lng": -0.075573
}, {
	"title": "eco 98 limited",
	"address": "17 Stoke Newington Road, Greater London, N16 8BH",
	"postcode": "N16 8BH",
	"lat": 51.550893,
	"lng": -0.075412
}, {
	"title": "Jones & Sons",
	"address": "Unit G2 Stamford Works, 3 Gillett Street, N16 8JH",
	"postcode": "N16 8JH",
	"lat": 51.54932,
	"lng": -0.076517
}, {
	"title": "Weino BIB",
	"address": "39 Balls Pond Road, Greater London, N1 4BW",
	"postcode": "N1 4BW",
	"lat": 51.546068,
	"lng": -0.07837
}, {
	"title": "Ozone Coffee Roasters - Emma Street",
	"address": "8 Pritchards Road, Greater London, E2 9AP",
	"postcode": "E2 9AP",
	"lat": 51.534187,
	"lng": -0.06239
}, {
	"title": "Mama Shelter London",
	"address": "419-437, Hackney Road, Greater London, E2 8PP",
	"postcode": "E2 8PP",
	"lat": 51.53182,
	"lng": -0.062808
}, {
	"title": "Chemen Catering Ltd",
	"address": "Ground Floor Including Right Rear, 85 Stoke Newington Road, Greater London, N16 8AA",
	"postcode": "N16 8AA",
	"lat": 51.554028,
	"lng": -0.075193
}, {
	"title": "The Railway Tavern",
	"address": "2 St. Jude Street, Greater London, N16 8JT",
	"postcode": "N16 8JT",
	"lat": 51.548572,
	"lng": -0.077543
}, {
	"title": "Good Belly Vegan Pizzeria",
	"address": "2 St. Jude Street, Greater London, N16 8JT",
	"postcode": "N16 8JT",
	"lat": 51.548572,
	"lng": -0.077543
}, {
	"title": "The Talbot",
	"address": "109 Mortimer Road, Greater London, N1 4JY",
	"postcode": "N1 4JY",
	"lat": 51.542908,
	"lng": -0.079224
}, {
	"title": "MAP Maison",
	"address": "321 Kingsland Road, Greater London, E8 4DL",
	"postcode": "E8 4DL",
	"lat": 51.538627,
	"lng": -0.077011
}, {
	"title": "Tonkotsu East",
	"address": "1a Dunston Street, E8 4EB",
	"postcode": "E8 4EB",
	"lat": 51.537055,
	"lng": -0.075363
}, {
	"title": "Frizzante Ltd",
	"address": "1 Goldsmiths Row, Greater London, E2 8QA",
	"postcode": "E2 8QA",
	"lat": 51.532027,
	"lng": -0.066648
}, {
	"title": "devran restaurant",
	"address": "Basement and Ground Floor, 170-172 Stoke Newington Road, Greater London, N16 7UY",
	"postcode": "N16 7UY",
	"lat": 51.556236,
	"lng": -0.074222
}, {
	"title": "OldTownhall Restaurants LTD",
	"address": "8 Patriot Square, Greater London, E2 9NF",
	"postcode": "E2 9NF",
	"lat": 51.530466,
	"lng": -0.055326
}, {
	"title": "E2 Fusion Kitchen Ltd",
	"address": "Ground, 391 Cambridge Heath Road, Greater London, E2 9RA",
	"postcode": "E2 9RA",
	"lat": 51.530059,
	"lng": -0.056423
}, {
	"title": "Festive Feasts Ltd",
	"address": "51 Old Ford Road, Greater London, E2 9PJ",
	"postcode": "E2 9PJ",
	"lat": 51.529974,
	"lng": -0.054005
}, {
	"title": "Duke of York",
	"address": "33 Downham Road, Greater London, N1 5AA",
	"postcode": "N1 5AA",
	"lat": 51.538894,
	"lng": -0.077809
}, {
	"title": "Sodo Pizza",
	"address": "Railway Arch, 266 Poyser Street, Greater London, E2 9RF",
	"postcode": "E2 9RF",
	"lat": 51.51524,
	"lng": 0.001289
}, {
	"title": "Belgrade Cafe",
	"address": "Flat, 102 Belgrade Road, Greater London, N16 8DJ",
	"postcode": "N16 8DJ",
	"lat": 51.553475,
	"lng": -0.076993
}, {
	"title": "The Scolt Head",
	"address": "107a, Culford Road, Greater London, N1 4HT",
	"postcode": "N1 4HT",
	"lat": 51.543793,
	"lng": -0.081569
}, {
	"title": "By The Bridge Cafè",
	"address": "283a, Kingsland Road, Greater London, E2 8AS",
	"postcode": "E2 8AS",
	"lat": 51.535841,
	"lng": -0.077128
}, {
	"title": "FEMM UK LTD",
	"address": "355 Cambridge Heath Road, Greater London, E2 9RA",
	"postcode": "E2 9RA",
	"lat": 51.530059,
	"lng": -0.056423
}, {
	"title": "Victory Mansion",
	"address": "18 Stoke Newington High Street, Greater London, N16 7PL",
	"postcode": "N16 7PL",
	"lat": 51.557753,
	"lng": -0.074199
}, {
	"title": "U7 Lounge",
	"address": "Unit 7, 2-4, Orsman Road, Greater London, N1 5FB",
	"postcode": "N1 5FB",
	"lat": 51.536405,
	"lng": -0.077523
}, {
	"title": "Route Haggerston",
	"address": "Unit y, Reliance Wharf, Hertford Road, Greater London, N1 5ET",
	"postcode": "N1 5ET",
	"lat": 51.536959,
	"lng": -0.078799
}, {
	"title": "City of Paris Restaurant",
	"address": "City of Paris Restaurant, 74 Bonner Street, E2 0QP",
	"postcode": "E2 0QP",
	"lat": 51.529949,
	"lng": -0.048167
}, {
	"title": "The Japanese Canteen",
	"address": "Railway Arch 255, Paradise Row, Greater London, E2 9LE",
	"postcode": "E2 9LE",
	"lat": 51.527932,
	"lng": -0.056096
}, {
	"title": "Arepa & Co - Bethnal Green",
	"address": "254 Paradise Row, Greater London, E2 9LE",
	"postcode": "E2 9LE",
	"lat": 51.527932,
	"lng": -0.056096
}, {
	"title": "Boom Bap Burger",
	"address": "252 Paradise Row, Greater London, E2 9LE",
	"postcode": "E2 9LE",
	"lat": 51.527932,
	"lng": -0.056096
}, {
	"title": "The Camel Public House",
	"address": "277 Globe Road, Greater London, E2 0JD",
	"postcode": "E2 0JD",
	"lat": 51.528329,
	"lng": -0.051321
}, {
	"title": "BABEL CAFE RESTAURANT",
	"address": "86 Stoke Newington High Street, Greater London, N16 7PA",
	"postcode": "N16 7PA",
	"lat": 51.559,
	"lng": -0.074016
}, {
	"title": "SANTI Restaurant Pizzeria",
	"address": "42-45 Victory Parade, Stratford, Greater London, E20 1FS",
	"postcode": "E20 1FS",
	"lat": 51.548627,
	"lng": -0.008992
}, {
	"title": "Neighbourhood",
	"address": "52-54, Celebration Avenue, Greater London, E20 1DB",
	"postcode": "E20 1DB",
	"lat": 51.547465,
	"lng": -0.007941
}, {
	"title": "La Gelatiera",
	"address": "1-2 West Park Walk, Stratford, Greater London, E20 1DH",
	"postcode": "E20 1DH",
	"lat": 51.546659,
	"lng": -0.011323
}, {
	"title": "The Stratford",
	"address": "20 International Way, Greater London, E20 1FD",
	"postcode": "E20 1FD",
	"lat": 51.545256,
	"lng": -0.00801
}, {
	"title": "Chopstix Stratford Westfield",
	"address": "Unit FC0005,Westfield StratfordCity, Olympic Park, Montfichet Road, E20 1EJ",
	"postcode": "E20 1EJ",
	"lat": 51.544336,
	"lng": -0.006347
}, {
	"title": "Pasta Remoli Westfield Stratford",
	"address": "3 Great Eastern Market,Westfield St, Montfichet Road, Greater London, E20 1GP",
	"postcode": "E20 1GP",
	"lat": 51.54382,
	"lng": -0.008807
}, {
	"title": "Ergon Deli & Cafe",
	"address": "Unit SU 0004C Great Eastern Market, Westfield, E20 1GP",
	"postcode": "E20 1GP",
	"lat": 51.54382,
	"lng": -0.008807
}, {
	"title": "The Indians Next Door",
	"address": "14 Great Eastern Market,Westfield, Montfichet Road, Greater London, E20 1GP",
	"postcode": "E20 1GP",
	"lat": 51.54382,
	"lng": -0.008807
}, {
	"title": "CrepeAffaire Westfield Stratford",
	"address": "21a the Arcade,Westfield Stratford, Montfichet Road, Greater London, E20 1EH",
	"postcode": "E20 1EH",
	"lat": 51.543594,
	"lng": -0.006639
}, {
	"title": "AMORINO",
	"address": "KIOSK K31 WESTFIELD STRATFORD CITY, Montfichet Road, E20 1EQ",
	"postcode": "E20 1EQ",
	"lat": 51.543689,
	"lng": -0.006809
}, {
	"title": "SOM Restaurants ltd",
	"address": "1 food court, Lower ground floor stratford city, E20 1EH",
	"postcode": "E20 1EH",
	"lat": 51.543594,
	"lng": -0.006639
}, {
	"title": "Subway",
	"address": "Food Court 004 The Arcade, Westfield Stratford City, London, E20 1EH",
	"postcode": "E20 1EH",
	"lat": 51.543594,
	"lng": -0.006639
}, {
	"title": "Bird Restaurants",
	"address": "214 the Balcony,Westfield Stratford, Montfichet Road, Greater London, E20 1ES",
	"postcode": "E20 1ES",
	"lat": 51.543267,
	"lng": -0.007376
}, {
	"title": "All Star Lanes - Westfield Stratford",
	"address": "302 the Loft,Westfield Stratford Ci, Montfichet Road, Greater London, E20 1ET",
	"postcode": "E20 1ET",
	"lat": 51.543637,
	"lng": -0.006536
}, {
	"title": "INDIGO WESTFIELD STRATFORD",
	"address": "210 The Gallery, Westfield Shopping Centre, E20 1ES",
	"postcode": "E20 1ES",
	"lat": 51.543267,
	"lng": -0.007376
}, {
	"title": "Comptoir Stratford",
	"address": "202 the Gallery,Westfield Stratford, Montfichet Road, Greater London, E20 1ES",
	"postcode": "E20 1ES",
	"lat": 51.543267,
	"lng": -0.007376
}, {
	"title": "Lotus Leaf",
	"address": "FC2009 Monfichet Road, Westfield Stratford City, E20 1GN",
	"postcode": "E20 1GN",
	"lat": 51.543408,
	"lng": -0.006244
}, {
	"title": "CAFFE CONCERTO - NEW STRATFORD",
	"address": "SU1054A, Montfichet Road, E20 1GN",
	"postcode": "E20 1GN",
	"lat": 51.543408,
	"lng": -0.006244
}, {
	"title": "Rosa's Thai Cafe",
	"address": "Unit FC2012, Cafe Court, First Floor, E20 1GN",
	"postcode": "E20 1GN",
	"lat": 51.543408,
	"lng": -0.006244
}, {
	"title": "CAFFE CONCERTO - STRATFORD BALCONY",
	"address": "FC2001, Montfichet Road, E20 1GN",
	"postcode": "E20 1GN",
	"lat": 51.543408,
	"lng": -0.006244
}, {
	"title": "Shake Shack Stratford",
	"address": "124 - 125 The Street, Westfield Stratford City, E20 1EN",
	"postcode": "E20 1EN",
	"lat": 51.542991,
	"lng": -0.007547
}, {
	"title": "The Bat & Ball",
	"address": "Westfield Stratford 1110 The Street, Montfichet Road, E20 1EN",
	"postcode": "E20 1EN",
	"lat": 51.542991,
	"lng": -0.007547
}, {
	"title": "Umai - Shoryu Stratford Ltd",
	"address": "1 Chestnut Plaza,Westfield Stratfor, Montfichet Road, Greater London, E20 1GL",
	"postcode": "E20 1GL",
	"lat": 51.542604,
	"lng": -0.008039
}, {
	"title": "The Leyton Star",
	"address": "116 High Road Leyton, Greater London, E15 2BX",
	"postcode": "E15 2BX",
	"lat": 51.554504,
	"lng": -0.005138
}, {
	"title": "Aspers (Stratford City) Ltd",
	"address": "312 the Loft,Westfield Stratford Ci, Montfichet Road, Greater London, E20 1ET",
	"postcode": "E20 1ET",
	"lat": 51.543637,
	"lng": -0.006536
}, {
	"title": "Zizus Grill",
	"address": "118 High Road Leyton, Greater London, E15 2BX",
	"postcode": "E15 2BX",
	"lat": 51.554504,
	"lng": -0.005138
}, {
	"title": "Holiday Inn London Stratford",
	"address": "10 Chestnut Plaza,Westfield Stratfo, Montfichet Road, Greater London, E20 1GL",
	"postcode": "E20 1GL",
	"lat": 51.542604,
	"lng": -0.008039
}, {
	"title": "Burger King",
	"address": "4 Leyton Mills, Marshall Road, Greater London, E10 5NH",
	"postcode": "E10 5NH",
	"lat": 51.555293,
	"lng": -0.00871
}, {
	"title": "KFC LEYTON MILLS",
	"address": "4 Leyton Mills, Marshall Road, Greater London, E10 5NH",
	"postcode": "E10 5NH",
	"lat": 51.555293,
	"lng": -0.00871
}, {
	"title": "The Real Greek",
	"address": "5 Chestnut Plaza,Westfield Stratfor, Montfichet Road, Greater London, E20 1GL",
	"postcode": "E20 1GL",
	"lat": 51.542604,
	"lng": -0.008039
}, {
	"title": "Cabana Stratford",
	"address": "5 Chestnut Plaza,Westfield Stratfor, Montfichet Road, Greater London, E20 1GL",
	"postcode": "E20 1GL",
	"lat": 51.542604,
	"lng": -0.008039
}, {
	"title": "Busaba Westfield Stratford City",
	"address": "4 Chestnut Plaza,Westfield Stratfor, Montfichet Road, Greater London, E20 1GL",
	"postcode": "E20 1GL",
	"lat": 51.542604,
	"lng": -0.008039
}, {
	"title": "Tonkotsu Stratford",
	"address": "2 Endeavour Square, Greater London, E20 1JN",
	"postcode": "E20 1JN",
	"lat": 51.542021,
	"lng": -0.00919
}, {
	"title": "Heavenly Desserts",
	"address": "5 Endeavour Square, Greater London, E20 1JN",
	"postcode": "E20 1JN",
	"lat": 51.542021,
	"lng": -0.00919
}, {
	"title": "Four Quarters (Here East)",
	"address": "Unit 8 Canalside, Here East, London, E203BS",
	"postcode": "E203BS",
	"lat": 51.5473213,
	"lng": -0.0239752
}, {
	"title": "MOTHER",
	"address": "Here East, Greater London, E20 3BS",
	"postcode": "E20 3BS",
	"lat": 51.5473213,
	"lng": -0.0239752
}, {
	"title": "Himalaya Indian Restaurant and Bar",
	"address": "178 The Grove, Greater London, E15 1NS",
	"postcode": "E15 1NS",
	"lat": 51.54406,
	"lng": 0.004025
}, {
	"title": "Cafe Central Limited T/A Central Cafe",
	"address": "Unit 59, 70-73, The Mall the Stratford Centre, Greater London, E15 1XQ",
	"postcode": "E15 1XQ",
	"lat": 51.541947,
	"lng": 0.00135
}, {
	"title": "Koi sushi garden",
	"address": "156 The Grove, Greater London, E15 1NS",
	"postcode": "E15 1NS",
	"lat": 51.54406,
	"lng": 0.004025
}, {
	"title": "STEAKOUT STRATFORD",
	"address": "150 The Grove, Greater London, E15 1NS",
	"postcode": "E15 1NS",
	"lat": 51.54406,
	"lng": 0.004025
}, {
	"title": "O12 BAR & GRILL RESTAURANT",
	"address": "108 The Grove, Greater London, E15 1NS",
	"postcode": "E15 1NS",
	"lat": 51.54406,
	"lng": 0.004025
}, {
	"title": "Saint Espresso - Here East, Hackney",
	"address": "13 East Bay Lane, Greater London, E15 2GW",
	"postcode": "E15 2GW",
	"lat": 51.546985,
	"lng": -0.023555
}, {
	"title": "Creams Cafe",
	"address": "Unit 83, The Stratford Mall, E15 1XA",
	"postcode": "E15 1XA",
	"lat": 51.541152,
	"lng": 0.000522
}, {
	"title": "Kotch",
	"address": "55 Leytonstone Road, Greater London, E15 1JA",
	"postcode": "E15 1JA",
	"lat": 51.546877,
	"lng": 0.005475
}, {
	"title": "The Breakfast Club Hackney Wick",
	"address": "29 East Bay Lane, Hackney, Greater London, E15 2GW",
	"postcode": "E15 2GW",
	"lat": 51.546985,
	"lng": -0.023555
}, {
	"title": "German Doner Kebab (GDK)",
	"address": "50 Broadway, Greater London, E15 1NG",
	"postcode": "E15 1NG",
	"lat": 51.541677,
	"lng": 0.001901
}, {
	"title": "Beer Merchants Tap",
	"address": "99 Wallis Road, E9 5LN",
	"postcode": "E9 5LN",
	"lat": 51.544206,
	"lng": -0.02356
}, {
	"title": "Number 90 UK LTD",
	"address": "90 , Wallis Road, E9 5LN",
	"postcode": "E9 5LN",
	"lat": 51.544206,
	"lng": -0.02356
}, {
	"title": "Hoxton 177 LTD",
	"address": "90, Wallis Road, E9 5LN",
	"postcode": "E9 5LN",
	"lat": 51.544206,
	"lng": -0.02356
}, {
	"title": "Leyton Technical",
	"address": "265b, High Road Leyton, Greater London, E10 5QN",
	"postcode": "E10 5QN",
	"lat": 51.559313,
	"lng": -0.008217
}, {
	"title": "Barge East",
	"address": "Barge East, Sweetwater Mooring, White Post Lane, E9 5EN",
	"postcode": "E9 5EN",
	"lat": 51.542958,
	"lng": -0.023109
}, {
	"title": "CRATE Brewery & Pizzeria",
	"address": "Unit 7 Ground and Mezz, Queens Yard, 43 White Post Lane, Greater London, E9 5EN",
	"postcode": "E9 5EN",
	"lat": 51.542958,
	"lng": -0.023109
}, {
	"title": "KING EDWARD VII",
	"address": "47 Broadway, Greater London, E15 4BQ",
	"postcode": "E15 4BQ",
	"lat": 51.54093,
	"lng": 0.002631
}, {
	"title": "KFC LEYTON",
	"address": "283 High Road Leyton, Greater London, E10 5QN",
	"postcode": "E10 5QN",
	"lat": 51.559313,
	"lng": -0.008217
}, {
	"title": "HS&Co",
	"address": "405 High Street, Greater London, E15 4QZ",
	"postcode": "E15 4QZ",
	"lat": 51.539035,
	"lng": -0.000163
}, {
	"title": "Dar Marrakech",
	"address": "403 High Street, Greater London, E15 4QZ",
	"postcode": "E15 4QZ",
	"lat": 51.539035,
	"lng": -0.000163
}, {
	"title": "Mexicasa",
	"address": "Basement and Ground Floor,Essex Hou, 375-377 High Street, Greater London, E15 4QZ",
	"postcode": "E15 4QZ",
	"lat": 51.539035,
	"lng": -0.000163
}, {
	"title": "Wraps & Wings",
	"address": "369 High Street, Greater London, E15 4QZ",
	"postcode": "E15 4QZ",
	"lat": 51.539035,
	"lng": -0.000163
}, {
	"title": "HWK Limited",
	"address": "29 White Post Lane, Greater London, E9 5EN",
	"postcode": "E9 5EN",
	"lat": 51.542958,
	"lng": -0.023109
}, {
	"title": "Hurk Limited",
	"address": "29 White Post Lane, Greater London, E9 5EN",
	"postcode": "E9 5EN",
	"lat": 51.542958,
	"lng": -0.023109
}, {
	"title": "R&P Restaurrants LTD The Grill Stratford",
	"address": "38 Romford Road, Greater London, E15 4BZ",
	"postcode": "E15 4BZ",
	"lat": 51.542096,
	"lng": 0.006461
}, {
	"title": "Westbridge Hotel London",
	"address": "335-337, High Street, Greater London, E15 2TF",
	"postcode": "E15 2TF",
	"lat": 51.536281,
	"lng": -0.003759
}, {
	"title": "Natura Cafe & Pizzeria",
	"address": "Unit 3, 30 Felstead Street, E9 5LG",
	"postcode": "E9 5LG",
	"lat": 51.544547,
	"lng": -0.027885
}, {
	"title": "The Northcote E11",
	"address": "110 Grove Green Road, Greater London, E11 4EL",
	"postcode": "E11 4EL",
	"lat": 51.560463,
	"lng": -0.001299
}, {
	"title": "The Coach and Horses",
	"address": "391 High Road Leyton, Greater London, E10 5NA",
	"postcode": "E10 5NA",
	"lat": 51.561001,
	"lng": -0.010206
}, {
	"title": "Deeney's",
	"address": "360 High Road Leyton, Greater London, E10 6QE",
	"postcode": "E10 6QE",
	"lat": 51.563267,
	"lng": -0.010556
}, {
	"title": "Fireaway Pizza Leyton",
	"address": "372-374, High Road Leyton, E10 6QE",
	"postcode": "E10 6QE",
	"lat": 51.563267,
	"lng": -0.010556
}, {
	"title": "Noted Eel & Pie House",
	"address": "481a, High Road Leytonstone, Greater London, E11 4JU",
	"postcode": "E11 4JU",
	"lat": 51.558128,
	"lng": 0.006446
}, {
	"title": "Shepherds INN Leytonstone",
	"address": "483-485, High Road Leytonstone, Greater London, E11 4PG",
	"postcode": "E11 4PG",
	"lat": 51.559448,
	"lng": 0.00711
}, {
	"title": "THE ITALIAN JOB HACKNEY WICK",
	"address": "130 Cadogan Terrace, Greater London, E9 5HP",
	"postcode": "E9 5HP",
	"lat": 51.540835,
	"lng": -0.027888
}, {
	"title": "Sahara Grill Ltd",
	"address": "427-437 High Road Leyton, Greater London, E10 5EL",
	"postcode": "E10 5EL",
	"lat": 51.564276,
	"lng": -0.011319
}, {
	"title": "Franzos",
	"address": "434 High Road Leyton, Greater London, E10 6QE",
	"postcode": "E10 6QE",
	"lat": 51.563267,
	"lng": -0.010556
}, {
	"title": "ZAXX",
	"address": "161 Francis Road, Greater London, E10 6NT",
	"postcode": "E10 6NT",
	"lat": 51.563633,
	"lng": -0.005229
}, {
	"title": "The Leytonstone Tavern",
	"address": "119 Harrow Road, Greater London, E11 3PX",
	"postcode": "E11 3PX",
	"lat": 51.559276,
	"lng": 0.012497
}, {
	"title": "Heathcote and Star",
	"address": "344 Grove Green Road, Greater London, E11 4EA",
	"postcode": "E11 4EA",
	"lat": 51.565132,
	"lng": 0.002816
}, {
	"title": "keraspice",
	"address": "715 High Road Leytonstone, Greater London, E11 4RD",
	"postcode": "E11 4RD",
	"lat": 51.563892,
	"lng": 0.009615
}, {
	"title": "The Green Goose",
	"address": "112 Anglo Road, Greater London, E3 5HD",
	"postcode": "E3 5HD",
	"lat": 51.532144,
	"lng": -0.028177
}, {
	"title": "Eastern Palace Restaurant",
	"address": "278 Romford Road, Greater London, E7 9HD",
	"postcode": "E7 9HD",
	"lat": 51.546191,
	"lng": 0.025087
}, {
	"title": "Aromas tandoori restaurant",
	"address": "172 Forest Lane, Greater London, E7 9BB",
	"postcode": "E7 9BB",
	"lat": 51.54936,
	"lng": 0.022157
}, {
	"title": "Spice Village",
	"address": "311 Romford Road, Greater London, E7 9HA",
	"postcode": "E7 9HA",
	"lat": 51.546546,
	"lng": 0.024196
}, {
	"title": "Poyraz Ogullari UK Limited T/A Eastanbul Ocakbasi & Restaurant Meza Bar",
	"address": "753 High Road Leytonstone, Greater London, E11 4QS",
	"postcode": "E11 4QS",
	"lat": 51.566459,
	"lng": 0.010029
}, {
	"title": "The Bow Bells Pub",
	"address": "116 Bow Road, Greater London, E3 3AA",
	"postcode": "E3 3AA",
	"lat": 51.527882,
	"lng": -0.02033
}, {
	"title": "Panda cha limited",
	"address": "767 High Road Leytonstone, Greater London, E11 4QS",
	"postcode": "E11 4QS",
	"lat": 51.566459,
	"lng": 0.010029
}, {
	"title": "Pizza Haven",
	"address": "Ground Floor, 14 Sebert Road, Greater London, E7 0NQ",
	"postcode": "E7 0NQ",
	"lat": 51.550208,
	"lng": 0.026176
}, {
	"title": "Masala Chai Nashta",
	"address": "90 Upton Lane, Greater London, E7 9LW",
	"postcode": "E7 9LW",
	"lat": 51.543001,
	"lng": 0.025984
}, {
	"title": "Burger Joint",
	"address": "118 Upton Lane, Greater London, E7 9LW",
	"postcode": "E7 9LW",
	"lat": 51.543001,
	"lng": 0.025984
}, {
	"title": "In the HUB Limited",
	"address": "8 Ford Close, Ford Close, UK, E3 5LZ",
	"postcode": "E3 5LZ",
	"lat": 51.532329,
	"lng": -0.034497
}, {
	"title": "Madina grill house limited",
	"address": "85 Upton Lane, Greater London, E7 9PB",
	"postcode": "E7 9PB",
	"lat": 51.5431,
	"lng": 0.026394
}, {
	"title": "Serata Hall",
	"address": "207 Old Street, EC1V 9NR",
	"postcode": "EC1V 9NR",
	"lat": 51.52585,
	"lng": -0.089085
}, {
	"title": "The Old Street Chinese Restaurant",
	"address": "Kersella House 184-186, Old Street, Greater London, EC1V 9FR",
	"postcode": "EC1V 9FR",
	"lat": 51.525243,
	"lng": -0.089341
}, {
	"title": "Nightjar",
	"address": "Basement, 129-131 City Road, Greater London, EC1V 1JB",
	"postcode": "EC1V 1JB",
	"lat": 51.526527,
	"lng": -0.087713
}, {
	"title": "Passo",
	"address": "80 City Road, Greater London, EC1Y 2AS",
	"postcode": "EC1Y 2AS",
	"lat": 51.524922,
	"lng": -0.087869
}, {
	"title": "Officina 00",
	"address": "156 Old Street, Greater London, EC1V 9BW",
	"postcode": "EC1V 9BW",
	"lat": 51.525032,
	"lng": -0.091296
}, {
	"title": "Ozone Coffee Roasters - Leonard Street",
	"address": "11 Leonard Street, Greater London, EC2A 4AQ",
	"postcode": "EC2A 4AQ",
	"lat": 51.524639,
	"lng": -0.087172
}, {
	"title": "PASTA NOSTRA LONDON",
	"address": "Canto Court, 122 Old Street, Greater London, EC1V 9BD",
	"postcode": "EC1V 9BD",
	"lat": 51.524854,
	"lng": -0.092543
}, {
	"title": "Saksi ltd",
	"address": "118 Old Street, Greater London, EC1V 9BD",
	"postcode": "EC1V 9BD",
	"lat": 51.524854,
	"lng": -0.092543
}, {
	"title": "Halo Burger",
	"address": "Basement and Ground Floor, 105 Great Eastern Street, Greater London, EC2A 3JD",
	"postcode": "EC2A 3JD",
	"lat": 51.52607,
	"lng": -0.084489
}, {
	"title": "Monohon Ramen",
	"address": "Monohon Ramen, 102 Old Street, Greater London, EC1V 9AY",
	"postcode": "EC1V 9AY",
	"lat": 51.524646,
	"lng": -0.093575
}, {
	"title": "The Posh Burger",
	"address": "96 Old Street, Greater London, EC1V 9AY",
	"postcode": "EC1V 9AY",
	"lat": 51.524646,
	"lng": -0.093575
}, {
	"title": "Bounce Old Street",
	"address": "241 Old Street, Greater London, EC1V 9EY",
	"postcode": "EC1V 9EY",
	"lat": 51.526625,
	"lng": -0.084321
}, {
	"title": "Aquila Cafe Ltd",
	"address": "214 City Road, Greater London, EC1V 2PN",
	"postcode": "EC1V 2PN",
	"lat": 51.52824,
	"lng": -0.092384
}, {
	"title": "Market Cafe",
	"address": "132 Whitecross Street, Greater London, EC1Y 8QJ",
	"postcode": "EC1Y 8QJ",
	"lat": 51.524011,
	"lng": -0.093368
}, {
	"title": "The Royal Star",
	"address": "220 City Road, Greater London, EC1V 2PN",
	"postcode": "EC1V 2PN",
	"lat": 51.52824,
	"lng": -0.092384
}, {
	"title": "Singer Tavern",
	"address": "1-5, City Road, Greater London, EC1Y 1AG",
	"postcode": "EC1Y 1AG",
	"lat": 51.522773,
	"lng": -0.086919
}, {
	"title": "Swift Shoreditch",
	"address": "Basement and Ground, 91-93 Great Eastern Street, Greater London, EC2A 3HZ",
	"postcode": "EC2A 3HZ",
	"lat": 51.525664,
	"lng": -0.083323
}, {
	"title": "Cozzo Restaurant",
	"address": "Ground Floor at 177, 177-187 Whitecross Street, Greater London, EC1Y 8QP",
	"postcode": "EC1Y 8QP",
	"lat": 51.524172,
	"lng": -0.093837
}, {
	"title": "The Iskele Restaurant",
	"address": "179-181, Whitecross Street, Greater London, EC1Y 8QP",
	"postcode": "EC1Y 8QP",
	"lat": 51.524172,
	"lng": -0.093837
}, {
	"title": "Neds Noodle Bar",
	"address": "Basement and Ground Floor, 19-21 Pitfield Street, Greater London, N1 6HB",
	"postcode": "N1 6HB",
	"lat": 51.527114,
	"lng": -0.083856
}, {
	"title": "Fast Break - 113 Old Street",
	"address": "113 Old Street, Greater London, EC1V 9JR",
	"postcode": "EC1V 9JR",
	"lat": 51.524757,
	"lng": -0.094433
}, {
	"title": "Kennedys Restaurant",
	"address": "169 Whitecross Street, Greater London, EC1Y 8JT",
	"postcode": "EC1Y 8JT",
	"lat": 51.523636,
	"lng": -0.093499
}, {
	"title": "Ken's Kitchen",
	"address": "87 Great Eastern Street, Greater London, EC2A 3HY",
	"postcode": "EC2A 3HY",
	"lat": 51.525592,
	"lng": -0.083185
}, {
	"title": "Dhoomkitchen",
	"address": "20 City Road, Greater London, EC1Y 2AJ",
	"postcode": "EC1Y 2AJ",
	"lat": 51.522398,
	"lng": -0.087485
}, {
	"title": "The Fox",
	"address": "28 Paul Street, EC2A 4LB",
	"postcode": "EC2A 4LB",
	"lat": 51.523777,
	"lng": -0.083965
}, {
	"title": "St Leonards Restaurant",
	"address": "70 Leonard Street, Greater London, EC2A 4QX",
	"postcode": "EC2A 4QX",
	"lat": 51.524557,
	"lng": -0.083269
}, {
	"title": "Giovanni’s Restaurant",
	"address": "12 City Road, Greater London, EC1Y 2AA",
	"postcode": "EC1Y 2AA",
	"lat": 51.522091,
	"lng": -0.087426
}, {
	"title": "Jones Family Project",
	"address": "78 Great Eastern Street, Greater London, EC2A 3JL",
	"postcode": "EC2A 3JL",
	"lat": 51.52575,
	"lng": -0.082513
}, {
	"title": "Flight Club Darts",
	"address": "2a, Worship Street, Greater London, EC2A 2AH",
	"postcode": "EC2A 2AH",
	"lat": 51.522009,
	"lng": -0.085308
}, {
	"title": "Platform",
	"address": "2b, Worship Street, Greater London, EC2A 2AH",
	"postcode": "EC2A 2AH",
	"lat": 51.522009,
	"lng": -0.085308
}, {
	"title": "Attendant (Shoreditch)",
	"address": "74 Great Eastern Street, Greater London, EC2A 3JL",
	"postcode": "EC2A 3JL",
	"lat": 51.52575,
	"lng": -0.082513
}, {
	"title": "HAZ RESTAURANT",
	"address": "14 FINSBURY SQUARE, EC2A 1AH",
	"postcode": "EC2A 1AH",
	"lat": 51.52208,
	"lng": -0.086314
}, {
	"title": "Long Arm Pub & Brewery",
	"address": "20-26 Worship Street, Greater London, EC2A 2DX",
	"postcode": "EC2A 2DX",
	"lat": 51.522315,
	"lng": -0.085295
}, {
	"title": "Roosters Piri Piri Hoxton",
	"address": "Ground Floor, 100 East Road, Greater London, N1 6AA",
	"postcode": "N1 6AA",
	"lat": 51.529736,
	"lng": -0.086555
}, {
	"title": "Ricardos",
	"address": "9 Paul Street, Greater London, EC2A 4JJ",
	"postcode": "EC2A 4JJ",
	"lat": 51.52252,
	"lng": -0.084652
}, {
	"title": "The George & Vulture",
	"address": "The George & Vulture, 63 Pitfield Street, N1 6BU",
	"postcode": "N1 6BU",
	"lat": 51.528877,
	"lng": -0.083883
}, {
	"title": "Blacklock Shoreditch",
	"address": "28-30, Rivington Street, Greater London, EC2A 3DZ",
	"postcode": "EC2A 3DZ",
	"lat": 51.525893,
	"lng": -0.081944
}, {
	"title": "Meatmission",
	"address": "13-15 Hoxton Market, Hackney, Greater London, N1 6HG",
	"postcode": "N1 6HG",
	"lat": 51.52717,
	"lng": -0.083001
}, {
	"title": "St Lukes Kitchen",
	"address": "St. Lukes, 90 Central Street, Greater London, EC1V 8AJ",
	"postcode": "EC1V 8AJ",
	"lat": 51.527403,
	"lng": -0.096661
}, {
	"title": "The Griffin",
	"address": "93 Leonard Street, Greater London, EC2A 4RD",
	"postcode": "EC2A 4RD",
	"lat": 51.524852,
	"lng": -0.082031
}, {
	"title": "Friends of Ours",
	"address": "61 Pitfield Street, Greater London, N1 6BU",
	"postcode": "N1 6BU",
	"lat": 51.528877,
	"lng": -0.083883
}, {
	"title": "Cay Tre Hoxton",
	"address": "301 Old Street, Greater London, EC1V 9LA",
	"postcode": "EC1V 9LA",
	"lat": 51.526914,
	"lng": -0.0817
}, {
	"title": "Burdock",
	"address": "Royal London House 22-25, Finsbury Square, Greater London, EC2A 1DX",
	"postcode": "EC2A 1DX",
	"lat": 51.521647,
	"lng": -0.085698
}, {
	"title": "Aviary Rooftop Restaurant & Terrace Bar",
	"address": "Royal London House 22-25, Finsbury Square, Greater London, EC2A 1DX",
	"postcode": "EC2A 1DX",
	"lat": 51.521647,
	"lng": -0.085698
}, {
	"title": "Keu Deli",
	"address": "Basement and Ground Floors, 332-334 Old Street, Greater London, EC1V 9DR",
	"postcode": "EC1V 9DR",
	"lat": 51.526598,
	"lng": -0.081612
}, {
	"title": "Bottega Prelibato",
	"address": "43-45, Rivington Street, Greater London, EC2A 3QB",
	"postcode": "EC2A 3QB",
	"lat": 51.52611,
	"lng": -0.081445
}, {
	"title": "rossopomodoro",
	"address": "Basement and Ground Floor, 1 Rufus Street, Greater London, N1 6PE",
	"postcode": "N1 6PE",
	"lat": 51.526968,
	"lng": -0.081121
}, {
	"title": "Oklava",
	"address": "74 Luke Street, Greater London, EC2A 4PY",
	"postcode": "EC2A 4PY",
	"lat": 51.524211,
	"lng": -0.081914
}, {
	"title": "Cocotte",
	"address": "8 Hoxton Square, N1 6NU",
	"postcode": "N1 6NU",
	"lat": 51.52778,
	"lng": -0.081822
}, {
	"title": "sanjugo",
	"address": "35 Scrutton Street, Greater London, EC2A 4HU",
	"postcode": "EC2A 4HU",
	"lat": 51.523362,
	"lng": -0.082252
}, {
	"title": "Padella Shoreditch",
	"address": "The Frames Business Centre, 1 Phipp Street, Greater London, EC2A 4PS",
	"postcode": "EC2A 4PS",
	"lat": 51.523557,
	"lng": -0.081915
}, {
	"title": "The Breakfast Club Hoxton",
	"address": "2-4, Rufus Street, Greater London, N1 6PE",
	"postcode": "N1 6PE",
	"lat": 51.526968,
	"lng": -0.081121
}, {
	"title": "OLD KINGS HEAD",
	"address": "OLD KINGS HEAD, 28 HOLYWELL ROW, EC2A 4JB",
	"postcode": "EC2A 4JB",
	"lat": 51.522925,
	"lng": -0.082317
}, {
	"title": "Eight Club Moorgate /Quartier restaurant",
	"address": "1 Dysart Street, Greater London, EC2A 2BX",
	"postcode": "EC2A 2BX",
	"lat": 51.521736,
	"lng": -0.083837
}, {
	"title": "The Jugged Hare",
	"address": "49 Chiswell Street, City and County of the City of Lond, EC1Y 4SA",
	"postcode": "EC1Y 4SA",
	"lat": 51.520794,
	"lng": -0.090706
}, {
	"title": "Hache Shoreditch",
	"address": "147 Curtain Road, Greater London, EC2A 3QE",
	"postcode": "EC2A 3QE",
	"lat": 51.526583,
	"lng": -0.08069
}, {
	"title": "SAGARDI BASQUE COUNTRY CHEFS",
	"address": "Cordy House, 93 Curtain Road, Greater London, EC2A 3BS",
	"postcode": "EC2A 3BS",
	"lat": 51.525304,
	"lng": -0.080556
}, {
	"title": "Island Poke Shoreditch",
	"address": "Ground Floor, 42 Great Eastern Street, Greater London, EC2A 3EP",
	"postcode": "EC2A 3EP",
	"lat": 51.524841,
	"lng": -0.080708
}, {
	"title": "Flat Iron Steak Shoreditch",
	"address": "77 Curtain Road, Greater London, EC2A 3BS",
	"postcode": "EC2A 3BS",
	"lat": 51.525304,
	"lng": -0.080556
}, {
	"title": "Busaba Hoxton",
	"address": "319 Old Street, Greater London, EC1V 9LE",
	"postcode": "EC1V 9LE",
	"lat": 51.527087,
	"lng": -0.080683
}, {
	"title": "Banya No.1",
	"address": "17 Micawber Street, Unit B01 & B02, N1 7TB",
	"postcode": "N1 7TB",
	"lat": 51.530198,
	"lng": -0.094309
}, {
	"title": "Shoryu Ramen Ltd",
	"address": "Basement and Ground, 45 Great Eastern Street, Greater London, EC2A 3HP",
	"postcode": "EC2A 3HP",
	"lat": 51.524427,
	"lng": -0.080838
}, {
	"title": "Red Dog Saloon - Hoxton Square",
	"address": "37 Hoxton Square, Greater London, N1 6NN",
	"postcode": "N1 6NN",
	"lat": 51.527607,
	"lng": -0.080589
}, {
	"title": "Tasas Brindisa Shoreditch",
	"address": "152 Curtain Road, Hackney, Greater London, EC2A 3AT",
	"postcode": "EC2A 3AT",
	"lat": 51.526762,
	"lng": -0.080106
}, {
	"title": "The Diner Shoreditch",
	"address": "Basement and Ground Floor, 128 Curtain Road, Greater London, EC2A 3AQ",
	"postcode": "EC2A 3AQ",
	"lat": 51.526357,
	"lng": -0.08008
}, {
	"title": "The Blues Kitchen Shoreditch",
	"address": "134-146, Curtain Road, Greater London, EC2A 3AR",
	"postcode": "EC2A 3AR",
	"lat": 51.526563,
	"lng": -0.079999
}, {
	"title": "Nusa Kitchen Old Street",
	"address": "Basement and Ground Floors, 10 Old Street, Greater London, EC1V 9AB",
	"postcode": "EC1V 9AB",
	"lat": 51.523739,
	"lng": -0.096958
}, {
	"title": "Nhow London",
	"address": "2 Macclesfield Road, Greater London, EC1V 8DG",
	"postcode": "EC1V 8DG",
	"lat": 51.529259,
	"lng": -0.096843
}, {
	"title": "The Flying Horse Pub",
	"address": "52 Wilson Street, Greater London, EC2A 2ER",
	"postcode": "EC2A 2ER",
	"lat": 51.520618,
	"lng": -0.084763
}, {
	"title": "Queen of Hoxton",
	"address": "Roof Terrace, 1-5 Curtain Road, Greater London, EC2A 3JX",
	"postcode": "EC2A 3JX",
	"lat": 51.522266,
	"lng": -0.081189
}, {
	"title": "People's Choice Cafe",
	"address": "38 Goswell Road, City and County of the City of Lond, EC1M 7AA",
	"postcode": "EC1M 7AA",
	"lat": 51.522476,
	"lng": -0.097411
}, {
	"title": "Callooh Callay",
	"address": "Flat 1, 65 Rivington Street, Greater London, EC2A 3AY",
	"postcode": "EC2A 3AY",
	"lat": 51.526082,
	"lng": -0.079041
}, {
	"title": "Camino Shoreditch",
	"address": "2 Curtain Road, Greater London, EC2A 3BL",
	"postcode": "EC2A 3BL",
	"lat": 51.522134,
	"lng": -0.080721
}, {
	"title": "Goswell Road Coffee",
	"address": "160-164, Goswell Road, Greater London, EC1V 7DU",
	"postcode": "EC1V 7DU",
	"lat": 51.525368,
	"lng": -0.099395
}, {
	"title": "OKN1 Limited",
	"address": "40 Hoxton Street, Greater London, N1 6LR",
	"postcode": "N1 6LR",
	"lat": 51.528774,
	"lng": -0.079807
}, {
	"title": "Notes Music & Coffee Ltd, Moorgate",
	"address": "Citypoint, 1 Ropemaker Street, EC2Y 9AW",
	"postcode": "EC2Y 9AW",
	"lat": 51.519347,
	"lng": -0.089657
}, {
	"title": "Old Ivy House",
	"address": "166 Goswell Road, Greater London, EC1V 7DT",
	"postcode": "EC1V 7DT",
	"lat": 51.526165,
	"lng": -0.099766
}, {
	"title": "Farmer J",
	"address": "Farmer J, Unit 11 Finsbury Ave, Broadgate, EC2M 2PF",
	"postcode": "EC2M 2PF",
	"lat": 51.519716,
	"lng": -0.085176
}, {
	"title": "THE ALLEGORY",
	"address": "1A, Principal Place, Worship Street, EC2A 2BA",
	"postcode": "EC2A 2BA",
	"lat": 51.521933,
	"lng": -0.080528
}, {
	"title": "Kennedys of Goswell Road",
	"address": "184-186, Goswell Road, Greater London, EC1V 7DT",
	"postcode": "EC1V 7DT",
	"lat": 51.526165,
	"lng": -0.099766
}, {
	"title": "Sourced Market",
	"address": "Sourced Market, 7 - 21 Goswell Road, EC1M 7AH",
	"postcode": "EC1M 7AH",
	"lat": 51.521679,
	"lng": -0.097588
}, {
	"title": "Pizza Pilgrims Shoreditch",
	"address": "Basement and Ground Floor, 136-137 Shoreditch High Street, Greater London, E1 6JE",
	"postcode": "E1 6JE",
	"lat": 51.526418,
	"lng": -0.078275
}, {
	"title": "Burger & Beyond Shoreditch",
	"address": "147 Shoreditch High Street, Greater London, E1 6JE",
	"postcode": "E1 6JE",
	"lat": 51.526418,
	"lng": -0.078275
}, {
	"title": "Yum Bun at Dinerama",
	"address": "17-19, Great Eastern Street, Greater London, EC2A 3EJ",
	"postcode": "EC2A 3EJ",
	"lat": 51.522941,
	"lng": -0.078366
}, {
	"title": "VFC",
	"address": "Dinerama, 19 Great Eastern Street, Greater London, EC2A 3EJ",
	"postcode": "EC2A 3EJ",
	"lat": 51.522941,
	"lng": -0.078366
}, {
	"title": "BARAKA RESTAURANT AND BAR",
	"address": "Retail Unit 4, 1 Finsbury Avenue, City and County of the City of Lond, EC2M 2PF",
	"postcode": "EC2M 2PF",
	"lat": 51.519716,
	"lng": -0.085176
}, {
	"title": "Casa Do Frango Shoreditch",
	"address": "2 King John Court, Greater London, EC2A 3EZ",
	"postcode": "EC2A 3EZ",
	"lat": 51.524185,
	"lng": -0.078011
}, {
	"title": "Bangers",
	"address": "2-12, Wilson Street, EC2M 2TE",
	"postcode": "EC2M 2TE",
	"lat": 51.519098,
	"lng": -0.085879
}, {
	"title": "Pure Moorgate",
	"address": "100 Moorgate, City and County of the City of Lond, EC2M 6AB",
	"postcode": "EC2M 6AB",
	"lat": 51.518562,
	"lng": -0.087845
}, {
	"title": "The Olive Tree",
	"address": "6 Calvert Avenue, Greater London, E2 7JP",
	"postcode": "E2 7JP",
	"lat": 51.526079,
	"lng": -0.076257
}, {
	"title": "Tapster",
	"address": "2 Exchange Square, Liverpool Street Station, EC2A 2EH",
	"postcode": "EC2A 2EH",
	"lat": 51.519581,
	"lng": -0.08035
}, {
	"title": "Wood Street Bar & Restaurant",
	"address": "53 Fore Street Avenue, City and County of the City of Lond, EC2Y 5EJ",
	"postcode": "EC2Y 5EJ",
	"lat": 51.517943,
	"lng": -0.090177
}, {
	"title": "Redemption Roasters- Liverpool Street",
	"address": "8 Eldon Street, City and County of the City of Lond, EC2M 7LS",
	"postcode": "EC2M 7LS",
	"lat": 51.518746,
	"lng": -0.085779
}, {
	"title": "Redemption Roasters- Broadgate Circle",
	"address": "Kiosk 3, Broadgate Circle, City and County of the City of Lond, EC2M 2QS",
	"postcode": "EC2M 2QS",
	"lat": 51.518693,
	"lng": -0.083789
}, {
	"title": "Piazza",
	"address": "Piazza, 135-137 Aldersgate Street Barbican, City and County of the City of Lond, EC1A 4JA",
	"postcode": "EC1A 4JA",
	"lat": 51.520207,
	"lng": -0.097638
}, {
	"title": "Dishoom Shoreditch",
	"address": "7 Boundary Street, Greater London, E2 7JE",
	"postcode": "E2 7JE",
	"lat": 51.525876,
	"lng": -0.076496
}, {
	"title": "Super 8 Restaurant Ltd",
	"address": "64 Shoreditch High Street, Greater London, E1 6JJ",
	"postcode": "E1 6JJ",
	"lat": 51.524074,
	"lng": -0.076689
}, {
	"title": "Pizza East Shoreditch",
	"address": "The Tea Building, 56 Shoreditch High Street, Greater London, E1 6JJ",
	"postcode": "E1 6JJ",
	"lat": 51.524074,
	"lng": -0.076689
}, {
	"title": "Lyle's",
	"address": "The Tea Building, 56 Shoreditch High Street, Greater London, E1 6JJ",
	"postcode": "E1 6JJ",
	"lat": 51.524074,
	"lng": -0.076689
}, {
	"title": "Boundary London",
	"address": "2-4 Boundary Street, E2 7DD",
	"postcode": "E2 7DD",
	"lat": 51.524165,
	"lng": -0.07621
}, {
	"title": "Viet Grill",
	"address": "58 Kingsland Road, Greater London, E2 8DP",
	"postcode": "E2 8DP",
	"lat": 51.529646,
	"lng": -0.077173
}, {
	"title": "Rochelle Canteen",
	"address": "16 Playground Gardens, Arnold Circus, E27FA",
	"postcode": "E27FA",
	"lat": 51.525776,
	"lng": -0.074124
}, {
	"title": "Dirty Burger Shoreditch",
	"address": "13 Bethnal Green Road, Hackney, Greater London, E1 6LA",
	"postcode": "E1 6LA",
	"lat": 51.524203,
	"lng": -0.073613
}, {
	"title": "Eat Chay",
	"address": "Unit 48, Boxpark Shoreditch, 2-10 Bethnal Green Rd, E1 6GY",
	"postcode": "E1 6GY",
	"lat": 51.523454,
	"lng": -0.076338
}, {
	"title": "Rudie's Jerk Shack",
	"address": "Unit 44-45, Boxpark Retail Mall, 2-10 Bethnal Green Road, E1 6GY",
	"postcode": "E1 6GY",
	"lat": 51.523454,
	"lng": -0.076338
}, {
	"title": "EDu",
	"address": "Unit 59, Boxpark Retail Mall 2-10, Bethnal Green Road, Greater London, E1 6GY",
	"postcode": "E1 6GY",
	"lat": 51.523454,
	"lng": -0.076338
}, {
	"title": "Soft Serve Society",
	"address": "Unit 35, Boxpark Retail Mall 2-10, Bethnal Green Road, Greater London, E1 6GY",
	"postcode": "E1 6GY",
	"lat": 51.523454,
	"lng": -0.076338
}, {
	"title": "What the pitta shoreditch",
	"address": "Unit 52, Boxpark Retail Mall 2-10, Bethnal Green Road, Greater London, E1 6GY",
	"postcode": "E1 6GY",
	"lat": 51.523454,
	"lng": -0.076338
}, {
	"title": "Voodoo Ray's Boxpark",
	"address": "Unit 1-3, Boxpark Retail Mall 2-10, Bethnal Green Road, Greater London, E1 6GY",
	"postcode": "E1 6GY",
	"lat": 51.523454,
	"lng": -0.076338
}, {
	"title": "La Nonna",
	"address": "Unit 49, Boxpark, 2-10 Bethnal Green Road, Greater London, E1 6GY",
	"postcode": "E1 6GY",
	"lat": 51.523454,
	"lng": -0.076338
}, {
	"title": "salad mafia",
	"address": "Unit 58, Boxpark Retail Mall 2-10, Bethnal Green Road, Greater London, E1 6GY",
	"postcode": "E1 6GY",
	"lat": 51.523454,
	"lng": -0.076338
}, {
	"title": "Beltane&Pop",
	"address": "Unit 27, Boxpark Retail Mall 2-10, Bethnal Green Road, Greater London, E1 6GY",
	"postcode": "E1 6GY",
	"lat": 51.523454,
	"lng": -0.076338
}, {
	"title": "Black Bear Burger",
	"address": "Unit 61, Boxpark Retail Mall 2-10, Bethnal Green Road, Greater London, E1 6GY",
	"postcode": "E1 6GY",
	"lat": 51.523454,
	"lng": -0.076338
}, {
	"title": "POPTATA SHOREDITCH",
	"address": "Unit 55, Boxpark Retail Mall 2-10, Bethnal Green Road, Greater London, E1 6GY",
	"postcode": "E1 6GY",
	"lat": 51.523454,
	"lng": -0.076338
}, {
	"title": "Snog Frozen Yogurt",
	"address": "Unit 27, Boxpark Retail Mall 2-10, Bethnal Green Road, Greater London, E1 6GY",
	"postcode": "E1 6GY",
	"lat": 51.523454,
	"lng": -0.076338
}, {
	"title": "The Athenian - Shoreditch Boxpark",
	"address": "Unit 54, Boxpark Retail Mall 2-10, Bethnal Green Road, Greater London, E1 6GY",
	"postcode": "E1 6GY",
	"lat": 51.523454,
	"lng": -0.076338
}, {
	"title": "Dirty Bones",
	"address": "1 Club Row, Greater London, E1 6JX",
	"postcode": "E1 6JX",
	"lat": 51.52425,
	"lng": -0.074289
}, {
	"title": "Hanoi Cafe",
	"address": "98 Kingsland Road, Greater London, E2 8DP",
	"postcode": "E2 8DP",
	"lat": 51.529646,
	"lng": -0.077173
}, {
	"title": "Indigo at Rich Mix",
	"address": "35-47, Bethnal Green Road, Greater London, E1 6LA",
	"postcode": "E1 6LA",
	"lat": 51.524203,
	"lng": -0.073613
}, {
	"title": "Busaba Shoreditch",
	"address": "36 Bethnal Green Road, Shoreditch, E1 6HT",
	"postcode": "E1 6HT",
	"lat": 51.523778,
	"lng": -0.074035
}, {
	"title": "Hungry Beast",
	"address": "87 Kingsland Road, Greater London, E2 8AG",
	"postcode": "E2 8AG",
	"lat": 51.530265,
	"lng": -0.077524
}, {
	"title": "The Vurger Co - Shoreditch",
	"address": "Unit 9 Avant Garde, 6 Richmix Square, Cygnet Street, E1 6LD",
	"postcode": "E1 6LD",
	"lat": 51.524047,
	"lng": -0.073012
}, {
	"title": "Shoreditch Fish & Chips",
	"address": "117 Redchurch Street, Greater London, E2 7DL",
	"postcode": "E2 7DL",
	"lat": 51.524857,
	"lng": -0.072459
}, {
	"title": "Smokestak",
	"address": "35 Sclater Street, Greater London, E1 6LB",
	"postcode": "E1 6LB",
	"lat": 51.523682,
	"lng": -0.073102
}, {
	"title": "Glass House Brick Lane",
	"address": "118 Bethnal Green Road, Greater London, E2 6DG",
	"postcode": "E2 6DG",
	"lat": 51.524954,
	"lng": -0.071174
}, {
	"title": "QUAKER STREET COFFEE & BUBBLE TEA LTD",
	"address": "Unit B, 10 Quaker Street, Greater London, E1 6SZ",
	"postcode": "E1 6SZ",
	"lat": 51.522294,
	"lng": -0.075191
}, {
	"title": "Made Of Dough SHOREDITCH",
	"address": "224 Brick Lane, Greater London, E1 6SA",
	"postcode": "E1 6SA",
	"lat": 51.524075,
	"lng": -0.071411
}, {
	"title": "Well & Bucket",
	"address": "143 Bethnal Green Road, Greater London, E2 7DG",
	"postcode": "E2 7DG",
	"lat": 51.525373,
	"lng": -0.071082
}, {
	"title": "Brewhouse and Kitchen Hoxton",
	"address": "Railway Arches 397 to 400, Geffrye Street, Greater London, E2 8HZ",
	"postcode": "E2 8HZ",
	"lat": 51.531396,
	"lng": -0.075746
}, {
	"title": "Yanji Restaurant",
	"address": "153 Bethnal Green Road, Greater London, E2 7DG",
	"postcode": "E2 7DG",
	"lat": 51.525373,
	"lng": -0.071082
}, {
	"title": "Song Que Cafe Limited",
	"address": "Song Que Cafe, 134 Kingsland Road, E2 8DY",
	"postcode": "E2 8DY",
	"lat": 51.531162,
	"lng": -0.076823
}, {
	"title": "Holy Shot Coffee",
	"address": "155 Bethnal Green Road, Greater London, E2 7DG",
	"postcode": "E2 7DG",
	"lat": 51.525373,
	"lng": -0.071082
}, {
	"title": "3AKE",
	"address": "204 Brick Lane, Greater London, E1 6SA",
	"postcode": "E1 6SA",
	"lat": 51.524075,
	"lng": -0.071411
}, {
	"title": "Draft House Birdcage",
	"address": "80 Columbia Road, Greater London, E2 7QB",
	"postcode": "E2 7QB",
	"lat": 51.52846,
	"lng": -0.070678
}, {
	"title": "Genesis",
	"address": "144-146, Commercial Street, Greater London, E1 6NU",
	"postcode": "E1 6NU",
	"lat": 51.521894,
	"lng": -0.076029
}, {
	"title": "Golden Tea",
	"address": "156 Bethnal Green Road, Greater London, E2 6DG",
	"postcode": "E2 6DG",
	"lat": 51.524954,
	"lng": -0.071174
}, {
	"title": "Commercial Tavern",
	"address": "142 Commercial Street, Greater London, E1 6NU",
	"postcode": "E1 6NU",
	"lat": 51.521894,
	"lng": -0.076029
}, {
	"title": "Damascus Lounge One Ltd",
	"address": "119-121, Brick Lane, Greater London, E1 6SE",
	"postcode": "E1 6SE",
	"lat": 51.522345,
	"lng": -0.071758
}, {
	"title": "Hawksmoor",
	"address": "157a, Commercial Street, Greater London, E1 6BJ",
	"postcode": "E1 6BJ",
	"lat": 51.52115,
	"lng": -0.075657
}, {
	"title": "Delamina East",
	"address": "151-153, Commercial Street, Greater London, E1 6BJ",
	"postcode": "E1 6BJ",
	"lat": 51.52115,
	"lng": -0.075657
}, {
	"title": "Isshoni limited",
	"address": "185 Bethnal Green Road, Greater London, E2 6AB",
	"postcode": "E2 6AB",
	"lat": 51.526251,
	"lng": -0.067585
}, {
	"title": "Morito",
	"address": "195 Hackney Road, Greater London, E2 8JL",
	"postcode": "E2 8JL",
	"lat": 51.530594,
	"lng": -0.073558
}, {
	"title": "All Star Lanes - Brick Lane",
	"address": "91 Brick Lane, Greater London, E1 6QL",
	"postcode": "E1 6QL",
	"lat": 51.521039,
	"lng": -0.072032
}]